"station_id","name","num_bikes","num_scooters","latitude","longitude","description"
503,"Lavender Bay - Waiwera Street",9,4,-33.843322,151.205973,"in a dedicated bay on Waiwera Street near the corner of Lavender Street. This dedicated station has been provided by North Sydney City Council for the benefit of local residents and businesses."
491,"Enmore - London Street",11,4,-33.896722,151.171199,"On London Street near the corner of Augustus Street."
374,"Redfern - Bourke Street near Cleveland Street",11,4,-33.891971,151.214386,"in a dedicated bay on Bourke Sreet, just south of Cleveland Street. Thanks to City of Sydney for this great location."
301,"Redfern - Walker Street",11,4,-33.891893,151.208739,"in a dedicated bay on Walker Street, near the corner of Cooper St. Thanks to City of Sydney for this great location."
349,"Kings Cross- Kellett Street",9,4,-33.87439,151.2237,"in a dedicated bay - generously provided by the City of Sydney - on Kellett Street  2 mins walk up from Bayswater Road. Thanks to City of Sydney for this great location!"
375,"Redfern - Bourke Street near Cleveland Street",9,4,-33.891971,151.214386,"in a dedicated bay on Bourke Sreet, just south of Cleveland Street. Thanks to City of Sydney for this great location."
294,"Newtown South - Darley Street",11,4,-33.90586,151.180807,"on Darley Street, near the corner of King Street. "
378,"Paddington - Greens Road",11,4,-33.883624,151.220788,"in a dedicated bay on Greens Road just off Oxford Street. Thanks to Woollahra Municipal Council for this great location."
267,"Marrickville - Addison Road",11,5,-33.901522,151.161683,"on Addison Road on the corner of East Street, near the Addison Road Centre."
196,"Zetland - Gadigal Avenue",11,4,-33.906771,151.208358,"a dedicated bay outside the shops on Gadigal Avenue, near the corner of Joynton Avenue."
372,"Elizabeth Bay - Ithaca Road",11,5,-33.87201,151.228669,"in a dedicated bay on Ithaca Road just before Elizabeth Bay Road. Thanks to City of Sydney for this great location."
298,"Redfern - Chalmers Street",11,4,-33.893865,151.205209,"in a dedicated bay on Chalmers Street, near the corner of Turner Street. Thanks to City of Sydney for this great location"
88,"St Leonards - Herbert Street",9,6,-33.8221,151.1936,"This pod located on Herbert St, about 100m up from the Pacific Highway. Dedicated pod provided byWilloughby City Council for the benefit of local residents and businesses."
303,"McMahons Point - Blues Point Reserve",9,5,-33.84864,151.203749,"in a dedicated bay on Blues Point Road, corner of Henry Lawson Ave adjacent to the Blues Point Reserve. This station has been provided by North Sydney City Council for the benefit of local residents and businesses."
228,"Glebe - Arundel Street",9,4,-33.884311,151.186219,"in a didicated pod outside 63 Arundel St close to the footbridge to Sydney uni."
387,"Summer Hill - Sloan Street",9,5,-33.888462,151.140887,"on Sloane Street.  Please return bicycle and scooters in an unrestricted bay on Sloane St near Kensington Road. "
155,"Haymarket - Quay Street",11,5,-33.882249,151.203678,"on Quay Street, just north of Bijou Lane. these bikes and scooters is located in a dedicated spot generously provided by the City of Sydney"
350,"Potts Point - Tusculum Street",11,5,-33.871203,151.223982,"east side of Tusculum Street on the corner of Hughes Street, in a dedicated pod - generously provided by the City of Sydney."
279,"Potts Point - Ward Avenue near Kellett Place",11,4,-33.874438,151.224859,"in a dedicated bay on Ward Avenue, near the corner of Kellett Place. Thanks to City of Sydney for this great location. "
149,"Glebe - Cook Street",11,5,-33.874307,151.182925,"on Cook street, near the corner of Glebe Point Road, at number 2 Cook Street. the bikes and scooters are in a dedicated station that has been generously provided by the City of Sydney."
73,"Randwick - Silver Street Car Park",11,4,-33.9139,151.2395,"in the Randwick council car park, on the south side of Silver Street, between Elizabeth St and Belmore Rd, in a dedicated pod. Many thanks to Randwick Council for providing us with this spot."
484,"Clovelly - Frenchmans Road",11,4,-33.908428,151.247934,"in an unrestricted location on Frenchmans Road on the corner of Clovelly Road."
384,"Balmain - Reynolds Street near Buchannan Street",11,5,-33.86238,151.180222,"in a dedicated bay on Reynolds St near the corner of Buchannan Street. Thanks to Leichhardt Municipal Council for this great location."
302,"Erskineville - Railway Parade",11,5,-33.898554,151.188084,"in a dedicated bay on Railway parade, on the corner of Clara Street. Thanks to City of Sydney for this great location!"
42,"Surry Hills - Corner Bourke & Arthur Street",9,4,-33.8878,151.2155,"This pod is located in a (new!) dedicated bay outside 496 Arthur Street, near the corner of Bourke St in Surry Hills.Thanks to City of Sydney for this great location"
171,"Darlinghurst - Surrey Street",13,6,-33.877381,151.221807,"in its original location, on Surrey St, in a dedicated bay near the corner of Victoria St. This location has been generously provided by the City of Sydney, so let's all give them a great big hand!"
199,"Coogee-  Dolphin Street",9,5,-33.918148,151.252787,"on Dolphin St, near the corner of Mount St, near the Coogee Bowling Club."
113,"Annandale - Johnston Street",9,4,-33.88636,151.16826,"on Johnston street."
180,"Newtown South - Holmwood Street",11,4,-33.90443,151.178285,"near 49 Holmwood St."
327,"Darlington - Shepherd Street near Lander Street",9,4,-33.891361,151.193821,"in a dedicated bay on Shepherd Street, outside the entry to Sydney Uni on the corner of Lander St. Thanks to City of Sydney for this great location!"
166,"Surry Hills - High Holborn Street",9,4,-33.889348,151.212677,"on High Holbourne Street."
351,"Chippendale - Daniels Street",9,4,-33.885821,151.196077,"in a dedicated bay on Daniels St near the corner of Shepherd St."
445,"Erskineville - Macdonald Street corner Rochford Street",11,5,-33.903345,151.182242,"in a dedicated bay on Macdonald Street on the corner of Rochford Street. Thanks to City of Sydney for this great location!"
498,"Randwick - Judge Street",11,4,-33.915599,151.244587,"on Judge Street opposite Milford Street. "
234,"Surry Hills - Devonshire Street near Bourke Street",9,4,-33.889573,151.214731,"on Devonshire Street, near the corner of Bourke St. these bikes and scooters is very near the Bourke St Bakery. Thanks to City of Sydney for this great location"
126,"Potts Point - 116 Victoria Street",9,5,-33.8715,151.2231,"in a dedicated pod - generously provided by the City of Sydney - near 116 Victoria street. Thanks to City of Sydney for this great location!"
186,"Woolloomooloo - Cathedral Street",9,6,-33.872803,151.21935,"in a dedicated bay on Cathedral St just west of Forbes St. Thanks to City of Sydney for this pod. "
263,"Petersham - Terminus Street",11,5,-33.893446,151.155742,"on Terminus Street, on the corner of Railway St, outside the hotel."
26,"Erskineville - Corner Swanson and Park Street",9,4,-33.9005,151.1893,"on Swanson Street, adjacent to the park, opposite the framing store."
490,"Enmore - Marian Street",9,5,-33.900611,151.173356,"On Marian Street near the corner of Cross Lane."
91,"Glebe - Glebe Point Road",11,7,-33.875878,151.183897,"in a dedicated bay on Glebe Glebe Point Road next to Toxteth Road."
244,"Manly - Osborne Road",11,4,-33.802475,151.287146,"in Osborne Road."
115,"North Sydney - Miller Street Car Park",11,5,-33.83684,151.20729,"TBA"
22,"Newtown North - Hollis Park",11,5,-33.895,151.1866,"on the corner of Wilson and Randle Streets at the bottom of Hollis Park."
100,"Pyrmont - Harris Street and Scott Street",11,5,-33.8672,151.1924,"in a dedicated pod on Harris St., at the corner of Scott and Harris Streets"
532,"Enmore - Black Street",9,4,-33.904917,151.170145,"in a dedicated bay on Black street next to Enmore park, outside the new swimming complex."
84,"Leichardt",11,4,0,0,"Norton Street Secure Car Park"
338,"Neutral Bay - Hariette Street",11,5,-33.838241,151.221426,"In a dedicated bay in the cul de sac of Wycombe, on the corner  of Hariette and Wycombe. This dedicated space has been provided by North Sydney City Council for the benefit of local residents and businesses."
140,"Artarmon - Broughton Road",9,4,-33.80887,151.18397,"in a dedicated bike pod on Broughton Road. Dedicated bay provided by Willoughby City Council for the benefit of local residents and businesses."
370,"Pyrmont - Pyrmont Street near Pyrmont Bridge Road",9,4,-33.870511,151.195559,"in a dedicated bay on Pyrmont Street north of Pyrmont Bridge Road. Thanks for City of Sydney for this great location."
16,"Enmore - Edgeware Road Car Park",11,5,-33.899843,151.171339,"in a council car park on the corner of Edgeware and Enmore road. The reserved car bay is in the corner closest to the laneway and Enmore Road."
63,"Fairlight - Hilltop Crescent",9,4,-33.7962,151.2751,"on Hilltop Crescent close to the shops on Sydney Road."
97,"Sydney CBD - Goulburn Street",23,11,-33.87855,151.20888,"Corner of Goulburn and Elizabeth Street. It is a large Wilson's Parking station along the railway line from Central Station."
251,"Surry Hills - Marlborough street",11,4,-33.890895,151.210896,"in a dedicated bay on Marlborough St, on the corner of Cleveland St. Thanks to City of Sydney for this great location!"
133,"Newtown - Flour Mill Studios - Gladstone Street",11,5,-33.8977,151.175172,"these bikes and scooters is located in a dedicated bike location in the Flour Mill Studios car park at 3 Gladstone Street, easily accessible by non-Flour Mill Studios residents"
289,"McMahons Point  - East Crescent Street",11,5,-33.84721,151.205046,"in a dedicated bay on East Crescent Street, outside an apartment building on the west side of the street on the corner of Parker Street. This space has been provided by North Sydney City Council for the benefit of local residents and businesses."
230,"Newtown North - Wilson Street",15,6,-33.894351,151.188269,"in a dedicated bay on Wilson St near the corner of Forbes St. NOTE: this location replaces the old Hollis Park pod. Thanks to City of Sydney for providing this new dedicated bay"
170,"Rozelle - Merton Street Car Park",9,4,-33.862149,151.170207,"in a dedicated bicylce pod within the Council Car Park on Merton Street, near Hamilton Street. This location has been generously provided by Leichhardt Council."
455,"Annandale - Annandale Street",11,4,-33.876085,151.171605,"on Annandale street on the corner of Rose Street."
295,"Darlington - Abercrombie Street near Hudson Street",9,5,-33.88892,151.198592,"in a dedicated bay on Abercrombie St, opposite Hudson Street. Thanks to City of Sydney for this great location."
286,"Darlinghurst - Darlinghurst Road",9,4,-33.876618,151.221257,"in a dedicated bay outside 213 Darlinghurst Road, outside the medical centre. Thanks to City of Sydney for this great location."
463,"North Sydney - Harnett Street",11,5,-33.835474,151.209044,"in a dedicated bay on Harnett Street on the corner of Mclaren Street. This dedicated space has been provided by North Sydney City Council for the benefit of local residents and businesses."
139,"Ultimo - Mountain Street",11,4,-33.88402,151.19653,"in a dedicated bicycle pod - generously provided by the City of Sydney - in front of 88 Mountain street."
80,"Woolloomooloo - Forbes Street",11,4,-33.8742,151.2192,"On Forbes Street, near the William Street end."
335,"Birchgrove- Bay Street",15,5,-33.852863,151.182843,"in Bay St on the corner of Short St outside the fencing to Mort Bay park."
114,"Erskineville - Charles Street",11,4,-33.898643,151.184763,"in a dedicated bay on Charles Street outside the Islamic Mosque and Cultural Centre. Thanks to City of Sydney for this great location!"
368,"Millers Point - 14 Kent Street",9,5,-33.85862,151.203547,"in a dedicated bay at 14 Kent Street near the corner of Argyle Street. Thanks to City of Sydney for this great location."
239,"Ultimo - McKee Street",11,5,-33.88141,151.1979,"in a dedicated bay next to 1 McKee St, between Mary Ann Street and Macarthur Street.  Thanks to City of Sydney for this great location"
367,"Bondi - Dudley Street",9,4,-33.89536,151.271175,"in a dedicated pod on Dudley Street on the corner of Bondi Road"
394,"Bondi - Woodstock Street",9,4,-33.892201,151.258861,"in a dedicated bay on Woodstock street on the corner of Flood Street. Thanks to Waverley Council for this great location!"
331,"Redfern - Baptist Street",9,5,-33.89201,151.212468,"in a dedicated bay on Baptist street, outside the shopping centre on the corner of Cleveland Street. Thanks to City of Sydney for this great location!"
130,"Darlinghurst - Liverpool Street",11,7,-33.87729,151.21526,"in a dedicated bicycle pod - generously provided by the City of Sydney - on Liverpool street, just west of Crown Street"
373,"Elizabeth Bay - Onslow Avenue",11,5,-33.870389,151.226685,"in a dedicated bay on Onslow Avenue on the corner of Onslow Place. Thanks to City of Sydney for this great location!"
19,"Bondi Junction - Grosvenor Street",15,7,-33.8908,151.2499,"located corner of Grosvenor & Grafton Street in car park under the Syd Enfield Drive. This pod is opposite the Bondi Junction bus and train interchange"
281,"Surry Hills - Crown Street near Jesson Street",11,4,-33.887935,151.213422,"in a dedicated bay on Crown Street, on the corner of Jesson St. Thanks to City of Sydney for this great location."
446,"Newtown - Queen Street",9,4,-33.89267,151.187064,"in a dedicated bay on Queen street on the corner of King Street. Thanks to City of Sydney for this great location!"
176,"Camperdown - Layton Street",13,7,-33.885426,151.176994,"in a dedicated bay generously provided by City of Sydney Council on Layton Street near Pyrmont Bridge Road."
123,"Randwick - Glebe Street",11,5,-33.911646,151.249648,"in a dedicated location on Glebe St near the corner of Carrington Road."
203,"Neutral Bay - Park Avenue",9,4,-33.82634,151.217698,"on Park Avenue opposite the Cammeray Golf Course, between Sutherland St and Grasmere Rd."
405,"Sydney CBD - 383 Kent Street",15,5,-33.87007,151.204421,"at 383 Kent Street in the Secure Park car park. the bikes and scooters is in a dedicated bay on Level G, near the Kent Street exit barrier.You can enter via Kent or Sussex Streets."
23,"Glebe - Metro Light Rail",11,5,-33.8777,151.1864,"near at the corner of Lombard Street and Palmerston Avenue around 100m from the old Valhalla Cinema off Glebe Point Road. Generously provided by the City of Sydney."
284,"Surry Hills - Riley Street corner of Devonshire Street",11,4,-33.887894,151.212108,"in a dedicated bay on Riley street, near the corner of Devonshire street, just past the pedestrian crossing. Thanks to City of Sydney for this great location!"
104,"Balmain - Wortley Street",15,8,-33.8604,151.1789,"on Wortley Street, on the park side, as close to #31 as possible."
401,"Sydney CBD - Hilton Hotel",9,7,-33.871636,151.207173,"in the Hilton Hotel car park, accessible 24 Hours a day, 7 days a week. The driveway entrance and exit is at 255 Pitt Street. "
39,"Darlinghurst - Forbes Street",11,4,-33.8768,151.2186,"in a dedicated outside 188 Forbes Street located opposite Clapton place near the Horizon building and SCEGGS.  Thanks to City of Sydney for this great location!"
332,"Redfern - Elizabeth Street",11,5,-33.891191,151.207677,"in a dedicated bay on Elizabeth Street, on the corner of Cooper Street. Thanks to City of Sydney for this great location!"
509,"Surry Hills - Commonwealth Street",11,4,-33.882394,151.210788,"in a dedicated bay on Commonwealth Street near the corner of Little Albion Street. Thanks to City of Sydney for this great location!"
515,"Randwick - Blenheim Street",11,5,-33.916062,151.236709,"on Blenheim Street near the corner of Botany Street."
270,"Bondi North - Hastings Parade",9,5,-33.889019,151.283345,"in a dedicated bay on Hastings Parade, just west of Campbell Parade. Thanks to Waverley Council for this great location. "
129,"Darlinghurst - Crown Street",19,8,-33.87553,151.21603,"Just Opposite 156 Crown Street in a dedicated pod - generously provided by the City of Sydney - Corner of Crown Street and Stanley Street"
431,"McMahons Point - Blues Point Road near Mitchell Street",11,4,-33.843769,151.204496,"in a dedicated bay on Blues Point Road on the corner of Mitchell Street This space has been provided by North Sydney City Council for the benefit of local residents and businesses."
496,"Marrickville - Warren Road",11,4,-33.915468,151.1495,"on Warren Road between Illawarra Road and Roach Street. "
336,"Birchgrove",11,5,-33.852863,151.182843,"Bay St on the corner of Short St (Outside the fencing to Mort Bay park."
108,"Newtown North - Moore College",13,6,-33.8917,151.1877,"Located right on City Road in the front car park of Moore College. The dedicated spot is the first bay on the left hand side of car park. Located right on City Road in the front car park of Moore College."
326,"Darlington -  Codrington Street",11,4,-33.89102,151.19109,"in a dedicated bay on Codrington St, on the corner of Darlington Road. Thanks to City of Sydney for this great location!"
425,"Chatswood - Centennial Avenue",11,5,-33.798802,151.178543,"in a dedicated bay on Centennial Avenue near the corner of Pacific Highway. This dedicated space has been provided by Willoughby City Council for the benefit of local residents and businesses."
337,"Milsons Point - Alfred Street",13,5,-33.845968,151.211318,"in a dedicated bay on Alfred St outside the station opposite Cliff St. This dedicated space has been provided by North Sydney City Council for the benefit of local residents and businesses."
257,"Bondi - Curlewis Street corner of Blair St",11,4,-33.885475,151.26922,"in a dedicated bay in the car park of Liors mechanical repairs at 28 Curlewis - on the corner of Curlewis St and Blair St.  "
229,"Surry Hills - Crown Street near Lansdowne Street",9,7,-33.890457,151.213009,"on Crown st outside the Westpac Bank, 100 m down the road from Lansdowne St.  This dedicated bay is replacing the previous location at High Holborn St. Thanks to City of Sydney for providing this great location"
184,"Rozelle - Thornton Street",11,4,-33.858941,151.171762,"on Thornton St on the corner of Darling St. Thank you to Leichhardt Council for providing this pod."
193,"Paddington - Oatley Road",11,5,-33.885278,151.226136,"a dedicated bay near the corner of Oxford St, in front of the Paddington Town Hall."
424,"Chatswood - McIntosh Street",9,4,-33.794322,151.182148,"in a dedicated bay on McIntosh Street, near the corner of Anderson St. This dedicated space has been provided by Willoughby City Council for the benefit of local residents and businesses."
494,"Rozelle - Terry Street",9,4,-33.857681,151.171151,"on Terry Street close to Bayville Street parked along side the green metal fence. This is not a dedicated pod and has been put in while we wait for our pods to be approved by council."
217,"Mosman - Raglan Street East Carpark",11,7,-33.830703,151.24477,"at the Raglan Street East Carpark on Raglan Street, near the corner of Military Road."
124,"Rozelle - Corner of Evans Street and Merton Street",9,4,-33.86341,151.17318,"in the angled parking on Merton Street, parked as close as possible to Evans Street."
450,"Newtown South - Pearl Street",9,7,-33.904515,151.176971,"in Pearl street on the corner of Little Commodore street."
163,"St Leonards - Herbert Street corner of Ella Street",11,7,-33.818153,151.192689,"in a dedicated bay on Herbert Street, just south of Ella Street, in front of Reece Plumbing. Dedicated bay provided by Willough City Council for the benefit of local residents and businesses."
297,"Redfern - Bourke Street",11,4,-33.894613,151.213669,"in a dedicated bay on Bourke Street, near the corner of Maddison St and outside the blocked end of Telopea St. Thanks to City of Sydney for this great location."
62,"Manly - Wood Street",11,6,-33.804,151.2868,"on street on Wood Street near the corner of Addison Road."
220,"Bronte - Gardyne Street",11,4,-33.903125,151.261631,"in a dedicated bay on Gardyne Street,  just east of Evans Street. Thanks to Waverley Council for this great location. "
376,"Redfern - Bourke Street near Cleveland Street",11,5,-33.891971,151.214386,"in a dedicated bay on Bourke Street near Cleveland Street, Thanks to City of Sydney for this great location."
393,"Surry Hills - Kippax Street corner Waterloo Street",9,5,-33.885311,151.210976,"in a dedicated bay on Kippax Street, on the corner of Waterloo Street"
474,"Elizabeth Bay - Ithaca Road corner Esplanade",11,4,-33.870734,151.228553,"in a dedicated bay on Ithaca Road on the corner of Esplanade. Thanks to City of Sydney for this great location!"
467,"Artarmon - Roberts Street",11,4,-33.808669,151.182172,"on Roberts street on the corner of Francis Street. Thanks to Willoughby Council for this great location!"
109,"Kings Cross - Greenknowe Avenue",19,4,-33.871752,151.227515,"in a dedicated pod, just down from number 8 Greenknowe Avenue. Thanks to City of Sydney for this great location!"
407,"Kings Cross - Crick Avenue",11,4,-33.871064,151.225342,"in a dedicated bay on Crick Ave near Macleay Street"
460,"Millers Point - Sussex Street",9,4,-33.866566,151.203266,"in a dedicated bay on Sussex Street just north of Sussex Lane. Thanks to City of Sydney for this great location!"
10,"Glebe - St Johns Church",15,5,-33.8809,151.1874,"on St Johns road near the corner of Glebe Point Road, in a dedicated pod - generously provided by the City of Sydney - in front of the St Johns Anglican Church"
120,"Dulwich Hill - Seaview Street Car Park",15,6,-33.90329,151.14434,"in a dedicated pod - generously provided by Marrickville Council - in car park off Seaview Street (alternately, furthest from Marrickville road), closest to Herbert Street. The pod itself is right off Seaview Street."
55,"Sydney CBD - Citipark Corner Kent and Market Streets",9,5,-33.8714,151.2043,"on the corner of Kent, Market & Sussex Streets with two entries, either via 431 Kent or 204 Sussex Streets. Entrances are marked "
265,"Annandale - Hinsby Park",9,4,-33.878941,151.172618,"next to Hinsby Park, on Piper Street South, near the corner of View Street. "
11,"McMahons Point - Blues Point Road",9,10,-33.842966,151.205016,"outside the McMahons Point Community Centre at 165 Blues Point Road - right in the middle of McMahons Point, North Sydney and Kirribilli! Closest cross street is Lavender Street. This dedicated space has been provided by North Sydney City Council for the benefit of local residents and businesses."
480,"Surry Hills - Reservoir Street corner Wright Lane",11,5,-33.881255,151.209177,"in a dedicated bay on Reservoir Street on the corner of Wright Lane. Thanks to City of Sydney for this great location!"
8,"Newtown - Wilson Street Car Park",11,10,-33.8962,151.1813,"in car park on Wilson Street about 50 metres down from the corner of Erskineville Road. the bikes and scooterss are in bays 6 or 7, next to the disabled parking spot. car park is close to the Newtown Mission Church and behind 'Happy Chef' and 'Gelatissimo' - the best gelati shop in Australia, if not the world."
495,"Summer Hill - Pembroke Street",11,4,-33.888174,151.134413,"on Pembroke street on the corner of Liverpool Road. "
273,"Redfern - South Dowling Street",11,4,-33.893112,151.216452,"in a dedicated bay on South Dowling street, adjacent to blocked off Chelsea St."
164,"Newtown - Phillip Street",13,4,-33.896655,151.173216,"at Phillip Street Newtown - just up the road on Gladstone street."
188,"Waverton- Woolcott Street",11,4,-33.83965,151.197946,"in a dedicated bay in the parallel parking area next to the park, near 30 Woolcott St This dedicated space has been provided by North Sydney City Council for the benefit of local residents and businesses."
250,"Surry Hills - Reservoir Street",9,4,-33.881346,151.211675,"in a dedicated bay next to 89 Reservoir St, on the corner of Smith St. Thanks to City of Sydney for this great location!"
404,"North Sydney - Miller Street Secure Park",9,4,-33.835999,151.207929,"at 213 Miller Street in the Secure Park car park. the bikes and scooters is located outside on the driveway of car park, where the signage is."
17,"Glebe - Glebe Town Hall",9,4,-33.882387,151.185147,"on Mount Veron Street near the corner of St Johns Road, opposite the Glebe Town Hall building. the bikes and scooters is in a dedicated bay generously provided by the City of Sydney."
137,"Chippendale - Myrtle Street",9,5,-33.88724,151.1978,"in a dedicated bay in front of 116-122  Myrtle street between Wiley Street and Smithers Street - generously provided by the City of Sydney!"
321,"Forest Lodge - Orphan School Creek Parklands",11,5,-33.882852,151.177015,"in a dedicated bay on the Orphan School Creek close to Creek St . Thanks to City of Sydney for this great location"
224,"Bondi - Francis Street",9,4,-33.89291,151.270097,"on Francis Street,  just east of Ormond Street"
322,"Pyrmont - John Street",11,4,-33.868072,151.191509,"in a dedicated bay on John Street, outside the tennis courts on the corner of Cadigal Ave. Thanks to City of Sydney for this great location!"
531,"Surry Hills - Fitzroy Street",9,5,-33.884504,151.214258,"in a dedicated bay on Fitzroy street on the corner of Crown Street. Thanks to City of Sydney for this great location!"
218,"Camperdown - TRIO Apartments",45,7,-33.883925,151.176057,"underground in the car park of TRIO apartments, near the corner of Alexandra Drive and Booth Street. To enter, simply walk down the driveway - the bikes and scooterss are parked at the far wall.This service is proudly provided in partnership with  TRIO for the benefit of TRIO residents and the surrounding community."
339,"Neutral Bay - Yeo Street corner Watson Street",9,4,-33.831772,151.218217,"In a dedicated Bay on the far right of the intersection, outside the apartment block. This dedicated space has been provided by North Sydney City Council for the benefit of local residents and businesses."
363,"Clovelly - Clovelly Beach Car Park",9,5,-33.915218,151.266927,"in a dedicated bay in the car park on Clovelly Beach, at the end of Clovelly Road."
360,"Artarmon - Cameron Avenue Car Park",9,5,-33.808148,151.186312,"in a dedicated bay in car park on Cameron Avenue"
235,"Camperdown - Lucas Street",9,4,-33.888459,151.180785,"in a dedicated bay on Lucas Street, near the corner of Missenden Road. Thanks to City of Sydney for this great location"
172,"Newtown - Brown Street",11,4,-33.894972,151.182282,"on Brown street, near the intersection with King Street. these bikes and scooters is located in its very own dedicated bay, generously provided by the City of Sydney."
511,"Darlinghurst - Palmer Street",11,5,-33.878635,151.216308,"on Palmer Street near the corner of Burton Street."
125,"Surry Hills - Devonshire Street",9,5,-33.8871,151.2102,"in a dedicated pod - generously provided by the City of Sydney - near 156 Devonshire street, near Waterloo Street"
6,"Glebe - Cafe Church",35,53,-33.87975,151.1894,"in car park at Cafe Church at 37 St Johns Road (corner Colbourne Avenue) Glebe. these bikes and scooters park has been provided by Cafe Church - see www.cafechurch.org.au for more information about these fine people!  bikes and scooters type may change. "
236,"Newtown - Susan Street",9,4,-33.891773,151.182047,"in a dedicated bay on Susan Street, near the corner of Carillon Avenue. Thanks to City of Sydney for this great location"
516,"Mosman - Brady Street",9,5,-33.823778,151.240486,"in a dedicated bay on Brady Street opposite the Bridge point shopping centre main entrance (5th car spot from corner of Military Rd). Thanks to Mosman Council for this great location!"
505,"Cremorne - Rangers Road",9,5,-33.833467,151.225723,"in a dedicated locations on Rangers Road on the corner of Harrison Street. This dedicated space has been provided by North Sydney City Council for the benefit of local residents and businesses."
500,"Balmain East - Johnson Street",11,4,-33.858219,151.193908,"in reserved bay No. 22 in the car park of 15 Johnston Street. The bay is the first one nearest to the road. "
475,"Pyrmont - Point Street",9,5,-33.865599,151.19326,"in a dedicated bay on Point Street, north of the corner of Bowman Street. Thanks to City of Sydney for this great location!"
147,"Kings Cross - Macleay Street",9,5,-33.86881,151.22568,"on Macleay Street - in a dedicated pod generously provided by City of Sydney - in front of 45-53 Macleay Street ('The Chimes')"
255,"Newtown - Campbell Street",9,5,-33.89265,151.183371,"in a dedicated bay on Campbell St, on the corner of Missenden Road. Thanks to City of Sydney for this great location!"
435,"Kirribilli - Kirribilli Avenue corner Warunda Avenue",11,5,-33.850381,151.216582,"in a dedicated bay on the corner of Kirribilli Ave and Waruda Avenue."
7,"Surry Hills - Albion Street",11,4,-33.8818,151.2094,"in the basement car park of the Citigate Sebel Hotel, which is located on Albion Street opposite the offices of the RTA. the bikes and scooters is located on level B2 and entry is via the lifts located in the lobby. Please call us for additional instructions on how to access this pod. "
82,"Parramatta - Lennox Bridge on Church Street",13,7,-33.8106,151.0045,"located on Lennox Bridge on Church Street in a dedicated space.  "
296,"Chippendale - Blackfriars Street",9,5,-33.885616,151.197731,"in a dedicated bay in Blackfriars Street, on the corner of Buckland St and near the University of Notre Dame."
194,"Ultimo - Kelly Street near Mountain Street",15,5,-33.881853,151.195945,"a dedicated bay in Kelly St, between Mountain Street and Blackwattle Lane "
179,"Marrickville - Petersham Road",11,4,-33.908556,151.154548,"on Petersham Rd, as close as possible to the library, between Stanley St and Marrickville Rd."
362,"Randwick - The Spot - Dine Street",9,5,-33.92027,151.241703,"in a dedicated bay at 'The Spot' on  Dine Street, near St Pauls Street. Thanks to Randwick City Council for this great location."
499,"Sydney CBD - Wynyard Lane Car Park",17,4,-33.865694,151.206583,"directly on top of Wynyard station, which is directly under The Menzies Hotel. You access car park through the entrance on Wynyard Lane."
462,"McMahons Point - Holt Street",9,4,-33.842723,151.203326,"in a dedicated bay on Holt Street, on the corner of Chuter Street.  This dedicated space has been provided by North Sydney City Council for the benefit of local residents and businesses."
487,"Glebe - Ferry Road",11,5,-33.876463,151.186205,"in a dedicated bay on Ferry Road, on the corner of Avon Street. Thanks to City of Sydney for this great location!"
458,"Kirribilli - 20 Carabella Street",11,4,-33.849773,151.21865,"in a dedicated bay on Carabella Street, near number 20, close to the corner of Holbrook Avenue. This dedicated space has been provided by North Sydney City Council for the benefit of local residents and businesses."
319,"Erskineville - 35 Ashmore Street",15,6,-33.902533,151.187541,"in a dedicated bay outside 35 Ashmore St, close to Binning Street. Thanks to City of Sydney for this great location!"
417,"Lane Cove - Rosenthal Avenue",9,5,-33.814509,151.168712,"on the corner of Rosenthal Avenue and Burns Bay Rd, next to loading zone on corner of the plaza."
154,"Millers Point - Windmill Street",15,6,-33.857614,151.20341,"on Windmill street at the intersection of Kent and Windmill, near the open space and Windmill Stairs. these bikes and scooters have its own dedicated bay generously provided by the City of Sydney."
406,"Marrickville - Wardell Road",11,5,-33.904972,151.147724,"on Wardell Road, near the corner of George  Street."
272,"Newtown - Trade Street",9,4,-33.895174,151.173808,"on Trade Street, near the corner of Baltic Street. "
276,"Darlinghurst - Womerah Avenue",9,4,-33.876977,151.226369,"in a dedicated bay on Womerah Avenue, adjacent to the park near the corner of Barcom Avenue, Thanks to City of Sydney for this great location"
205,"Enmore- Charles Street",11,5,-33.897338,151.173146,"on Charles St, near Philip St."
483,"Kingsford - Middle Street",11,4,-33.92115,151.227837,"in an unrestricted location on Middle Street near the corner of Anzac Parade."
313,"Darlington - Darlington Rd",11,5,-33.891214,151.190522,"Darlington Road corner of Codrington St"
202,"Annandale - Nelson street",9,6,-33.880205,151.174622,"in Nelson St, between Booth St and The Crescent, as near as possible to where the viaduct crosses Nelson St."
50,"Kensington - Lorne St",11,4,0,0,"on Silver St, in the Council Car Park, in a dedicated pod."
268,"Bondi - Curlewis Street outside the bikes and scooterswash",9,4,-33.886544,151.270527,"in a dedicated bay on Curlewis St, outside the bikes and scooterswash at 57-59 Curlewis St. Thanks to Waverley Council for this great location "
411,"Surry Hills - Foveaux Street corner Little Riley Street",9,5,-33.884868,151.212307,"on the corner of Foveaux and Little Riley Streets. Thanks to City of Sydney for this great location."
429,"Bondi Junction - Botany Street",9,5,-33.892939,151.254219,"in a dedicated bay on Botany Street on the corner of Waverley Street. Thanks to Waverley Council for this great location!"
60,"Balmain - Llewellyn Street",17,9,-33.85737,151.17672,"location is provided in two dedicated on-street pods located next to the Council Work Depot entrance opposite number 44 Llewellyn Street. Thank you to Leichhardt Council for providing  this pod."
153,"Pyrmont - Bulwara Road",11,5,-33.876495,151.196698,"on Bulwara street, opposite number 258, in a dedicated bay generously provided by the City of Sydney."
75,"Coogee Beach - Arden Street Car Park",9,5,-33.9195,151.2568,"on the west side of Arden Street, in the crescent shaped Council Car Park next to the oval. Our dedicated pod is located midway in the middle of car park"
318,"Millers Point - Argyle Street",9,4,-33.858628,151.205634,"in Argyle St parked as close to the intersection with Watsons Rd. The dedicated bay has not yet been installed, but should be very shortly."
311,"Glebe - Leichhardt Street",9,5,-33.873095,151.184007,"in a dedicated bay on Leichhardt Street, next to the steps going down to Stewart St. Thanks to City of Sydney for this great location!"
414,"Newtown - Linthorpe Street",9,4,-33.896793,151.182941,"on Linthorpe Street near the corner of Brown Street. Thanks to City of Sydney for this great location."
287,"Lavender Bay - Arthur Street",11,5,-33.843129,151.209093,"in a dedicated bay on Arthur Street, on the corner of Lavender Street and outside the apartments on the west side of the street.  This space has been provided by North Sydney City Council for the benefit of local residents and businesses."
144,"Church Point - Pittwater",9,4,-33.64487,151.28433,"in car park next to the Pasadena Hotel at Church Point."
247,"Woolloomooloo - Cowper Wharf Road",11,5,-33.869283,151.220439,"in a dedicated bay in front of 7-41 Cowper Wharf Road, on the corner of Forbes St. Thanks to City of Sydney for this great location!"
233,"Surry Hills - Belvoir Street",9,5,-33.888629,151.206556,"on Belvoir St, near the corner of Chalmers Street. Thanks to City of Sydney for this great location"
312,"Darlington - Shepherd Street",9,4,-33.888947,151.194796,"near Ivy St outside Sydney Uni Aeronautical Engineering Building"
118,"Bondi - 24-26 Roscoe Street",11,4,-33.88746,151.26984,"in a new location at 24-26 Roscoe St, in the first space in the apartment block on the right."
68,"Lavender Bay - MacKenzie Street",11,7,-33.8417,151.2062,"at the end of MacKenzie Street and Miller Streets where it meets a small park. A set of steps leads down from Blues Point Road to the park and the spot.This dedicated space has been provided by North Sydney City Council for the benefit of local residents and businesses."
246,"Kings Cross - Roslyn Gardens",9,5,-33.875339,151.225938,"in a dedicated bay in Roslyn Gardens, on the corner of Roslyn Street. Thanks to City of Sydney for this great location! Thanks to City of Sydney for this great location!"
478,"Manly - Raglan Street",11,4,-33.79535,151.284024,"on Raglan Street on the corner of Kangaroo Street opposite Manly Rugby Club."
342,"Neutral Bay - Eaton Street corner Rawson Street",9,4,-33.835786,151.21429,"In a dedicated Bay on Eaton St next to Forsyth Park on the corner Rawson St. This dedicated space has been provided by North Sydney City Council for the benefit of local residents and businesses."
256,"Surry Hills - Parkham Street",11,5,-33.89016,151.216651,"in a dedicated bay outside 62 Parkham St, on the corner of Parkham Palace. Thanks to City of Sydney for this great location!"
156,"Surry Hills - Corner of Mary Street and Albion Street",11,5,-33.882401,151.209799,"on Mary Street, just south of Albion Street, in front of Centennial Plaza, in a dedicated bicycle pod generously provided by the City of Sydney"
160,"Erskineville - Gowrie Street",11,4,-33.901477,151.180925,"in a dedicated location on Gowrie street, near the corner of Munni Street. Thanks to City of Sydney for this great location. NOTE: this location has been moved."
314,"Waterloo - Potter Street",11,5,-33.899068,151.211491,"in a dedicated bay on Potter St corner Bourke St. Thanks to City of Sydney for this great location!"
510,"Pyrmont - Edward Street",9,5,-33.869741,151.196074,"on Edward Street near the corner of Union Street."
440,"Elizabeth Bay - Elizabeth Bay Road",11,5,-33.872054,151.229828,"in a dedicated bay on Elizabeth Bay Road, near the dead end. Thanks to City of Sydney for this great location"
380,"Kingsford - Harbourne Road",9,5,-33.924017,151.228627,"in the first space on the west side of Harbourne Road, north of Rainbow Street. Thanks to Randwick council for this great location."
513,"Ashfield  - Orpington Street",11,5,-33.885389,151.132329,"on Orpington Street on the corner of Pembroke Street."
219,"Tamarama - Fletcher Street",11,4,-33.897287,151.2708,"on Fletcher Street, south side, just east of Silva Street."
482,"Kensington - Todman Avenue corner Anzac Parade",9,4,-33.910106,151.224851,"in an unrestricted location on Todman Avenue, near the corner of Anzac Parade. "
208,"Surry Hills - Crown Street",9,4,-33.88529,151.214012,"in a dedicated bay on the east side of Crown St  just south of Foveaux St near the bus stop. Thanks to City of Sydney for this great location"
512,"Artarmon - McMillan Road",9,5,-33.810583,151.186064,"on McMillan Road near the corner of Hampden Lane."
317,"Millers Point - 124 Kent Street",9,4,-33.861201,151.203742,"in front of 124 Kent Street in a dedicated bicycle bay generously provided by the City of Sydney"
231,"Darlinghurst - Burton Street",11,4,-33.879018,151.219797,"Outside 116 Burton street, near the corner of Darlinghurst Road, close to the Sydney Jewish Museum. Thanks to City of Sydney for this great pod."
248,"Ultimo - Bulwara road near Parbury Lane",11,4,-33.878856,151.198043,"in a dedicated bay on Bulwara Road, just north of Palbury Lane and near the intersection with William Henry St. Thanks to City of Sydney for this great location"
241,"Ultimo - Bay Street near Wentworth Street",11,4,-33.880234,151.19469,"in a dedicated bay on Bay Street, near the corner of Wentworth Street. Thanks to City of Sydney for this great location"
366,"Bondi North - Military Road Corner Blair Street",11,4,-33.885967,151.283938,"in a dedicated bay on the corner of Military Rd and Blair Street. Thanks to Waverley Council for this great pod."
210,"Crows Nest - Ernest Street",9,5,-33.826071,151.203879,"on the northern side of Ernest street, near the corner of Sophia Street, This dedicated space has been provided by North Sydney City Council for the benefit of local residents and businesses."
264,"Annandale - Reserve Street",9,4,-33.884258,151.166374,"on Reserve Street, on the south west side of the intersection with Young Street."
481,"Surry Hills - Crown Street near Albion Street",11,4,-33.883669,151.214295,"in a dedicated bay in Crown Street, between Albion Street and Fitzroy Street. Thanks to City of Sydney for this great location!"
300,"Chippendale - Shepherd Street",11,5,-33.884598,151.196082,"in a dedicated bay on Shepherd St, near the corner of Broadway in the deadend near the Broadway Cafe."
92,"Paddington - Ormond Street",9,6,-33.8844,151.2264,"opposite 16-20 Ormond St"
117,"Annandale - Trafalgar Street",9,5,-33.8843,151.17115,"opposite #49 Trafalgar Street"
96,"Surry Hills - Corner of Fitzroy and Marshall Street.",13,4,-33.8858,151.2168,"in a new dedicated bay on the corner of Fitzroy and Marshall St. Thanks to City of Sydney for this great location"
364,"Kensington - Todman Avenue",11,4,-33.905205,151.215983,"in a dedicated bay on Todman Avenue near Carminya Street. It is the first space in the 90 degree parking. Thanks to Randwick City Council for this great location."
38,"Pyrmont - Harris Street",11,4,-33.8732,151.1965,"Located in the Secure Car Park on Harris Street. Entrance to car park is on Allen Street. Take the lift to Level 4 (L4). Car will be parked in bays, 371 - 378. If unavailable then park in bays 341 - 353 or bays 354 - 370."
94,"Paddington - Hopewell Street",9,5,-33.8826,151.2221,"in a dedicated bicycle pod - generously provided by Woollahra Council - south of #1 Hopewell Street, near the corner of Oxford Street"
383,"Dulwich Hill - The Boulevarde",9,4,-33.898753,151.144232,"in a dedicated bay generously provided by Marrickville Council, outside number 92."
310,"Surry Hills - Marlborough Street near Ward Park",9,5,-33.888504,151.212403,"in a dedicated bay on Marlborough St, between Landsdown Street and Devonshire Street. Thanks to City of Sydney for this great location!"
69,"Neutral Bay - Ben Boyd Road",9,4,-33.8338,151.2187,"on Ben Boyd Road near the corner of Lindsay Street.This dedicated space has been provided by North Sydney City Council for the benefit of local residents and businesses."
280,"Potts Point - Victoria Street near Challis Ave",13,4,-33.868863,151.223518,"in a dedicated bay on Victoria Street near the corner of Challis Avenue. Thanks to City of Sydney for this great location!"
519,"UNSW - Shalom College",9,4,-33.91917,151.22805,"in the second parking bay opposite Shalom College (N9), next to the Village Green. If you are coming from outside the university these bikes and scooters is best accessed via Gate 14 on Barker Street. Thanks to UNSW for this great location!"
422,"Kings Cross - Earl Street",11,5,-33.87301,151.223762,"on Earl Street opposite to 11 Springfield Avenue, just outside Harris Farm Market."
174,"Kings Cross - 119 Macleay Street",13,5,-33.87259,151.224924,"Outside 119 Macleay St in a dedicated bicycle pod. Thanks to City of Sydney for this great location!"
320,"Kensington - Day Avenue corner of Doncaster Avenue",9,4,-33.917536,151.224221,"on Day Avenue corner of  Doncaster Avenue Kensington in a dedicated bay. Thanks to Randwick City Council for this great location."
330,"Newtown - Prospect Street",11,5,-33.893545,151.180882,"in a dedicated bay on Prospect Street, on the corner of Hordern Street. Thanks to City of Sydney for this great location!"
200,"Pyrmont- Bunn street",11,5,-33.871351,151.196809,"in a dedicated bay, near 32 Bunn Street. Thanks to City of Sydney for this great location."
40,"Camperdown - Fowler Street",11,5,-33.89,151.1771,"on Fowler St alongside Camperdown Oval close to the  Morton Bay fig trees and a stones throw from Canteen the cafe."
386,"Marrickville - Livingstone Road",9,4,-33.899582,151.153526,"on Livingstone Road near the Addison Road."
44,"Manly - Central Ave Car Park",19,7,-33.7964,151.2866,"in the Manly Council car park on the western side of Central Avenue above the post office (hint: it's car park with the steep ascending ramp - be careful as there are two carparks!)."
253,"Newtown - OConnell Street",11,4,-33.894098,151.182628,"in a dedicated bay on OConnell St, on the corner of King St. Thanks to City of Sydney for this great bay!"
443,"Darlinghurst - Darley Street",11,5,-33.878032,151.219593,"in a dedicated bay on Darley Street on the corner of Liverpool Street. Thanks to City of Sydney for this great location!"
465,"Rose Bay - Balfour Road",9,4,-33.875545,151.25883,"in a dedicated bay on Balfour road on the corner of Plumer Road. Thanks to Woollahra Council for this great location!"
269,"Charing Cross - Victoria Street carpark",9,4,-33.90053,151.254374,"in a dedicated bay in the Victoria Street carpark, on the corner of Victoria Street and Carrington Roads, opposite the church. Thanks to City of Sydney for this great location."
169,"Leichhardt - Marion Street Car Park",19,8,-33.88354,151.157761,"in a dedicated pod within the Council Car Park on Marion Street. This bay has been generously provided by Leichhardt Council."
285,"Darlinghurst - Barcom Avenue",11,5,-33.879236,151.223309,"in a dedicated bay on Barcom Avenue on the corner of Liverpool street."
420,"Newtown South - Alice Street",11,4,-33.903522,151.177563,"on Alice Street outside the Matt Hogan Reserve near the bus stop."
432,"Kirribilli - Waruda Street",11,4,-33.850316,151.216604,"in a dedicated bay on Waruda Street on the corner of Kirribilli Avenue. This dedicated space has been provided by North Sydney City Council for the benefit of local residents and businesses."
240,"Ultimo - Bay Street near Kelly Street",11,4,-33.88196,151.194717,"in a dedicated bay on Bay Street, near the corner of Kelly St. Thanks to City of Sydney for this great location."
304,"Neutral Bay - Rawson Street",11,4,-33.838371,151.213677,"in a dedicated bay on Rawson street, next to the park on the corner of Kurraba St.  This space has been provided by North Sydney City Council for the benefit of local residents and businesses."
377,"Surry Hills - Foster Street",11,5,-33.880085,151.209973,"in a dedicated bay on Foster Street on the corner of Campbell Street. Thanks to City of Sydney for this great location."
127,"Potts Point - Manning Street",9,7,-33.87087,151.22454,"in front of 3 Manning street, in a dedicated bicycle pod generously provided by the City of Sydney. Thanks to City of Sydney for this great location!"
52,"Maroubra - Maroubra Junction",11,5,-33.9435,151.2397,"on Anzac Parade, near Wise Street, in car park across the street from the Maroubra Junction Uniting Church. Our dedicated bay is situated next to the disabled parking spots. Our Maroubra service is in partnership with the Maroubra Junction Uniting Church, for more on the many activities of these great folk go to www.mjuniting.org.au"
216,"Mosman - Mosman Square Carpark",13,8,-33.825745,151.241732,"at the Mosman Square Carpark, behind the Civic Centre, on The Crescent near the Myahgah Road end."
183,"Bondi North - Mitchell Street",9,5,-33.883661,151.276336,"on Mitchell St near the corner of O'Donnell St. "
102,"Glebe - Derwent Lane and Derby Place (Glebe Public School)",9,4,-33.8836,151.1914,"in a dedicated bicycle pod on Derby Place, close to Glebe Point Road (in between Paramatta Road and Mitchell Street). This dedicated space has been generously provided by the City of Sydney."
299,"Chippendale - Rose Street",9,4,-33.887901,151.19439,"in a dedicated bay on Rose St, near the corner of Cleveland St. Thanks to City of Sydney for this great location."
316,"Pyrmont - Pirrama Road",9,4,-33.866027,151.19444,"just north of Jones Bay Road north of the bus zone. These bikes and scooters have a dedicated pod thanks to the City of Sydney."
357,"Surry Hills - Brisbane Street",9,4,-33.879624,151.211175,"In a dedicated bay provided by the City of Sydney. Located in Surry Hills on Brisbane Street east side near Harmony Park (south of Commonwealth Street)"
101,"Surry Hills - 21 Mary Street",13,7,-33.8806,151.21,"on Mary St, between Reservoir and Campbell Streets, in a dedicated bay in front of the Salvation Army building"
371,"Redfern - Telopea Street",9,5,-33.89448,151.212631,"in a dedicated bay on Telopea Street, just off  Kepos Street. Thanks to City of Sydney for this great location."
242,"Glebe - Ross Street",9,5,-33.881328,151.181571,"in a dedicated bay on Ross st, near the corner of Minogue Crescent. Thanks to City of Sydney for this great location"
190,"Kirribilli - Milsons Point Station.",11,4,-33.846039,151.212784,"on the eastern side of Broughton street, just north of the intersection with Ennis Road. (USED TO BE MILSONS POINT - BROUGHTON STREET. LOCATION HAS NOT CHANGED.)A dedicated bay is coming for these bikes and scooters. This dedicated space has been provided by North Sydney City Council for the benefit of local residents and businesses."
529,"Annandale - Albion Street",9,5,-33.887175,151.164118,"on Albion street on the corner of Ferris Street."
266,"Enmore - Liberty Street",11,5,-33.897941,151.169928,"on Liberty St on the corner of Cavendish St, outside the park."
81,"Surry Hills - Phelps Street",11,4,-33.8874,151.2161,"This pod is located on Phelps St. the bikes and scooters should be returned on Phelps St., as close as possible to  Phelps Lane."
138,"Chippendale - Balfour Street",9,5,-33.88847,151.19969,"in a dedicated bay outside 62 Balfour St on the east side of Balfour Street, near Cleveland Street. Thanks to City of Sydney for this great pod"
225,"Bondi - Consett Avenue",11,5,-33.890267,151.272147,"in a dedicated bay on Consett Avenue,  just west of Hall Street. Thanks to Waverley Council for this great location!"
197,"Waterloo - Danks Street",9,7,-33.898147,151.21419,"a dedicated bay on 30 Danks street, between Broome and South Dowling Street. Entry via South Dowling Street."
472,"Elizabeth Bay - Roslyn Gardens near Evans Road",11,4,-33.872808,151.227939,"in a dedicated bay on Roslyn Gardens on the corner of Evans Road. Thanks to City of Sydney for this great location!"
426,"Bondi - Cox Avenue",9,4,-33.889248,151.270478,"in a dedicated bay in the dead end of Cox Avenue. Thanks to Waverley Council for this great location!"
207,"Surry Hills - Kippax Street",11,5,-33.884594,151.209308,"in a dedicated bay outside 78-84 Kippax St, just east of Holt st. Thanks to City of Sydney for this great location"
290,"North Sydney - McLaren Street",9,6,-33.834788,151.207884,"in a dedicated location on McLaren street, on the north side of the street on the corner of Miller Street. This space has been provided by North Sydney City Council for the benefit of local residents and businesses."
359,"Redfern - Moorehead Street near Phillip Street",9,5,-33.896211,151.208698,"in a dedicated bay on Moorehead Street just north of the intersection with Phillip Street. Thanks to City of Sydney for this great location."
292,"Petersham - Hopetoun Street",11,5,-33.895486,151.158826,"on Hopetoun Street, near the corner of Fredrick St, adjacent to Maundrell Park."
168,"Rozelle - Waterloo Street",9,7,-33.863917,151.168777,"in a dedicated bicycle pod at the entrance to the Council Car Park on Waterloo Street - opposite 6-8 Waterloo Street. the bikes and scooters is located between the entrance and the exit of car park. This spot has generously been provided by Leichhardt Municipal Council."
451,"Milsons Point - Cliff Street",9,4,-33.843742,151.210245,"in a dedicated bay on Cliff Street on the corner of Lavender Street.   Thanks to North Sydney Council for this great location. This space has been provided by North Sydney City Council for the benefit of local residents and businesses."
261,"Surry Hills - Crown Street near Cleveland Street",11,4,-33.891452,151.21294,"in a dedicated bay on Crown Street, near the corner of Cleveland st. Thanks to City of Sydney for this great location"
277,"Darlinghurst - Liverpool Street near Hardie Street",11,4,-33.87823,151.22082,"in a dedicated bay on Liverpool st, near the corner of Hardie St. Thanks to City of Sydney for this great location!"
433,"Kirribilli - Elamang Avenue",11,5,-33.846164,151.215906,"in a dedicated bay on Elamang Avenue, 100 metres away from the intersection of Willoughby street. This dedicated space has been provided by North Sydney City Council for the benefit of local residents and businesses."
502,"Kirribilli - Parkes Street",9,5,-33.848397,151.215464,"in a dedicated location in Parkes Street on the corner of Upper Pitt Street. This dedicated space has been provided by North Sydney City Council for the benefit of local residents and businesses."
43,"Petersham - Petersham Town Hall",11,9,-33.894764,151.156962,"in the council car park on Crystal Street in between the Petersham Town Hall and the Marrickville Council administrative centre. You will find the bikes and scooters in a dedicated bay. Thank you to Marrickville Council for providing this spot."
64,"Kirribilli - Corner of Killibilli Ave and Broughton Street",11,5,-33.8469,151.214,"Pod is on Kirribilli Ave near the corner of Broughton St. This pod has the best view in Sydney overlooking the bridge and the Opera House. Pod kindly provided by the pro-active folk at North Sydney Council."
275,"Redfern - Young Street",11,4,-33.893954,151.210064,"in a dedicated bay on Young Street, near the corner of Redfern Street. Thanks to City of Sydney for this great location."
428,"Surry Hills - Nickson Street",9,5,-33.889403,151.214152,"in a dedicated bay on Nickson Street near the corner of Devonshire Street."
25,"Newtown South - Camden Street",11,7,-33.90379,151.173275,"on Camden St outside the TAFE carpark on the corner of Edgeware Road."
470,"Lavender Bay - Walker Street",11,5,-33.843055,151.20795,"in a dedicated bay on Walker Street on the corner of Lavender Street.  This dedicated space has been provided by North Sydney City Council for the benefit of local residents and businesses."
416,"Darlinghurst - Liverpool Street near Oxford Street",11,4,-33.877003,151.213078,"on Liverpool Street near Oxford street, opposite Hargrave Street. Thanks to City of Sydney for this great location."
461,"Potts Point - Wylde Street",9,4,-33.867115,151.224866,"in a dedicated bay on Wylde Street on the corner of Oak Lane. Thanks to City of Sydney for this great location!"
243,"Glebe - St Johns Road near Short Street",11,5,-33.884094,151.181869,"in a dedicated bay in St Johns Road, near the corner of Short Street. Thanks to City of Sydney for this great location!"
356,"Surry Hills - Pelican Street",9,5,-33.878812,151.213123,"In a dedicated bay provided by the City of Sydney. Located in Surry Hills on Pelican Street on the east side north of Waine Street"
365,"Bondi - Warners Avenue",11,5,-33.886855,151.275415,"in a dedicated bay on the corner of Warners Avenue and Mitchell Street. Thanks to Waverley Council for this great location."
18,"Bondi Beach - Gould Street",11,4,-33.8898,151.2741,"located near the Police Station on Gould Street alongside the pedestrian strip that connects through to Campbell Parade."
334,"Marrickville - Arthur Street",9,4,-33.913371,151.1531,"on Arthur street on the corner of Illawarra Road. "
185,"Bondi Beach - Lamrock Avenue",9,4,-33.89057,151.269867,"these bikes and scooters is located in the driveway of 51 Lamrock Avenue. Thanks to Janette and Robert for the use of their space!"
93,"Paddington - Glenview Lane",11,4,-33.8794,151.2242,"Near 108 Boundary Street."
457,"Kirribilli - Upper Pitt Street",13,5,-33.848362,151.215144,"in a dedicated bay on Upper Pitt Street, just past the pedestrian crossing outside Aloysius between Parkes Street and Jeffrey Street. This dedicated space has been provided by North Sydney City Council for the benefit of local residents and businesses."
222,"Bondi Junction - Ebley Street",13,7,-33.893144,151.245418,"in a dedicated bay on Ebley Street,  just west of Lawson Street. Thanks to Waverley Council for this great location. "
448,"Clovelly - Fern Street",11,4,-33.909271,151.254621,"on Fern street between Greville Street and Nolan Avenue."
274,"Redfern - Marriot Street",11,4,-33.891383,151.211663,"in a dedicated bay on Marriot St, adjacent to the shopping centre, near the corner of Cleveland Street. Thanks to City of Sydney for this great location!"
305,"Waverton - Bay Road",9,5,-33.837396,151.197691,"in a dedicated bay on Bay Road, between Whatmore Lane and Crows Nest Road, near the station. This dedicated space has been provided by North Sydney City Council for the benefit of local residents and businesses."
514,"Randwick - Writtle Park - Botany Street",11,4,-33.915014,151.236945,"on Botany Street near Arthur Street."
107,"Surry Hills - Holt Street",19,7,-33.885946,151.208965,"in a dedicated bicycle pod between 45-49 Holt Street. These pods has been generously provided by the City of Sydney. "
181,"Kirribilli- Carabella Street",9,5,-33.847356,151.216114,"on Carabella St in a dedicated bay outside Loretta School. This dedicated space has been provided by North Sydney City Council for the benefit of local residents and businesses."
37,"Darlington - Ivy Street",9,5,-33.891563,151.196036,"in a dedicated bay on Ivy St between Abercrombie St and Wilson St. Thanks to City of Sydney for this great location!"
173,"Macquarie Park - Optus Campus Sydney",9,5,-33.7843,151.1213,"located at the Optus Campus Sydney in a dedicated pod opposite the pedestrian crossing near entrance to building D."
325,"Darlington - Ivy Lane",11,5,-33.889061,151.1958,"in a dedicated bay on Ivy Lane, on the corner of Boundary Street. Thanks to City of Sydney for this great location!"
418,"Kings Cross - Earl Place",9,5,-33.87299,151.223754,"in a dedicated bay on Earl Place, just opposite to 11 Springfied Avenue (Carisbrooke) and outside Harris Farm Market. Thanks to City of Sydney for this great location!"
34,"Chippendale - Pine Street",9,8,-33.8871,151.19641,"in a dedicated pod - generously provided by the City of Sydney - on Pine street, between Myrtle Street and Paints Lane."
471,"Stanmore - Tupper Street",9,4,-33.899822,151.168269,"on Tupper Street near the corner of Stanmore Road outside the empty lot. "
66,"Erskineville - Victoria Street",11,5,-33.9025,151.184,"Near the corner of Victoria street and George street."
488,"Annandale - Johnston Street corner Reserve Street",9,4,-33.884743,151.169205,"in an unrestricted location in Johnston Street near the corner of Reserve Street. "
390,"Redfern - Redfern Street",9,4,-33.892483,151.201744,"in a dedicated bay on Redfern Street, on the corner of George Street. Thanks to City of Sydney for this great location!"
119,"Camperdown - Salisbury Road",9,4,-33.891098,151.178613,"on Salisbury Road, between Mallet Street and Mallet Lane, in a dedicated bay. This location has been generously provided by the City of Sydney. Please join us in giving them 3 cheers!"
249,"Paddington - Gordon Street",11,4,-33.886806,151.228376,"in a dedicated bay on Gordon St, on the corner of Regent st. Thanks to City of Sydney for this great location!"
2,"Erskineville - Erskineville Road",35,18,-33.899,151.183,"in the Council Car Park on Erskineville Road next to the Erskineville Pub. car park is on the other side of the road to the the BP Erskineville and opposite the old 'Imperial Hotel'."
486,"Clovelly - Arden Street",9,4,-33.912357,151.258598,"in an unrestricted location on Arden Street on the corner of Clovelly Road."
344,"Marrickville - Arthur Street",9,5,-33.913382,151.153126,"on the corner of Arthur Street and Illawarra Road."
4,"Newtown - Camperdown Memorial Park",27,10,-33.8939,151.1776,"on Federation Street Newtown, on the left hand bottom side of Camperdown Park. "
128,"Darlinghurst - Yurong Street",13,7,-33.875277,151.2142,"in a dedicated bicycle pod - Generously provided by the City of Sydney - on the west side of Yurong Street, opposite Stanley Lane"
530,"Woolloomooloo - Riley Street",9,5,-33.873214,151.216197,"in a dedicated bay on Riley street, between Kennedy Street and Broughton Street. Thanks to City of Sydney for this great location!"
83,"Leichhardt - Norton Street Secure Car Park",11,5,-33.885966,151.157066,"Norton Street Secure Car Park is located next to 70 Norton Street right next door to the Berkelouw book store. It is on the right-hand side of the road as you head down Norton Street towards Parramatta Road."
121,"Enmore - Simmons Street",21,5,-33.8993,151.1736,"on Simmons Street, as close to Enmore Road (starting at No. 1 Simmons Street) as possible, ie on the same side of the road as the Duke Hotel."
106,"Surry Hills - Riley and Reservoir Streets",9,4,-33.8816,151.2135,"at the corner of Riley and Reservoir Streets, in a dedicated bicycle pod provided to us by the City of Sydney."
85,"Crows Nest - Emmett Street",11,6,-33.830303,151.205451,"In a dedicated bicycle pod near the corner of Emmett and West Street. these bikes and scooters have been introduced in partnership with the Hayberry Precinct Committee. Their motto is 'We don't just discuss - we do' and we fully agree! To check them out go to www.hayberry.org This dedicated space has been provided by North Sydney City Council for the benefit of local residents and businesses."
61,"Drummoyne - Corner Lyons Road and Renwick Street",11,5,-33.850711,151.155395,"pod on Renwick Street as close to the corner of Lyons Road as possible. This pod is only 50 metres from Victoria Road and handy to bus services."
223,"Bondi Junction - Birrell Street",9,5,-33.895688,151.247812,"in a dedicated bay on Birrell Street,  east of Stanley Street."
518,"UNSW - Chemical Science Building",11,4,-33.916658,151.228525,"in the car park outside the Chemical Science Building (F10), near the rear of the Law Building next to the motorcycle bay. To access this location from outside the Uni, use Gate 2.  Thanks to UNSW for this great location!"
508,"Ashfield - Chandos Street",11,4,-33.882784,151.131749,"on Chandos Street near the corner of Loftus Street."
45,"Manly - Ashburner Street",9,5,-33.8015,151.2873,"on street on Ashburner Street in between Darley and the Esplanade East."
182,"Charing Cross - Wiley Street",11,5,-33.900343,151.256394,"on Wiley St near the corner of Victoria St in the angle parking bays. these bikes and scooters is parked between Victoria St and Salisbury Rd."
51,"Randwick - Randwick Town Hall",15,4,-33.9113,151.2435,"in the Randwick Town Hall Car Park."
504,"Cremorne - Winnie Street",11,5,-33.828989,151.225504,"in a dedicated bay on Winnie Street, on the corner of Belgrave Street. This dedicated space has been provided by North Sydney City Council for the benefit of local residents and businesses."
307,"Surry Hills - Bedford Street",11,4,-33.887695,151.208047,"in a dedicated bay on Bedford st, southern side, on the corner of Elizabeth Street. Thanks to City of Sydney for this great location!"
413,"Surry Hills - Crown Street near Goulburn Street",11,5,-33.880368,151.214968,"on Crown Street near Goulburn Street between Goulburn and Campbell. Thanks to City of Sydney for this great location."
95,"Paddington - Corner Paddington and Jersey Road",9,4,-33.8874,151.2356,"at the corner of Paddington and Jersey Road."
306,"Surry Hills - Rutland street",11,5,-33.886774,151.208238,"in a dedicated bay on Rutland Street, southern side, on the corner of Elizabeth St. Thanks to City of Sydney for this great location!"
165,"Camperdown - Lyons Road",9,4,-33.885816,151.179138,"near the corner of Lyons Road and Parramatta Road, outside number 30 Lyons Road."
361,"Coogee - Coogee Bay Road",11,4,-33.91972,151.249199,"in a dedicated bay on Coogee Bay Road, near Melody Street. Just before the bus zone."
21,"Chatswood - Claude Street Car Park",15,4,-33.79732,151.18593,"in a dedicated bicycle pod in car park at the corner of Albert Avenue and Archer Street. The location itself located right at the corner of Albert and Archer. Look for a great blue pole marking the location. This dedicated space has been provided by Dedicated parking bay provided by Willoughby City Council for the benefit of local residents and businesses."
442,"Darlinghurst - Darley Street",11,4,-33.878023,151.219954,"in a dedicated bay on Darley Street on the corner of Liverpool Street. Thanks to City of Sydney for this great location!"
427,"Summer Hill - Moonbie Street",9,5,-33.891866,151.136861,"on Moonbie Street near the corner of Smith Street."
191,"Manly- Carlton Street",15,4,-33.792566,151.285443,"on Carlton St west of Pittwater Rd (away from the beach) as close as possible to 7 Carlton St"
291,"Bondi - Wellington Street",9,5,-33.887807,151.26734,"in a dedicated bay on Wellington Street, just south of Hall Street and adjacent to the tennis courts. Thanks to Waverley Council for this great location."
49,"Parramatta - Civic Place",9,6,-33.8162,151.0046,"located in Civic Place outside the Council library in a dedicated space."
15,"Kings Cross - Kings Cross Car Park",13,5,-33.8732,151.2259,"in the heart of the cross. Available 24/7 at the Kings Cross Car Park on Ward Ave. "
507,"Crows Nest - West Street",11,4,-33.826971,151.206695,"on West Street near the corner of Burlington Lane - next to the TAFE."
348,"Kings Cross - Ward Avenue corner of Kings Cross Road",11,4,-33.875789,151.224436,"on the west side on the corner of Kings Cross Road in a dedicated bicycle pod. Thanks to City of Sydney for this great location!"
479,"Bondi Junction - Bronte Road",11,5,-33.89649,151.251419,"in a dedicated bay on Bronte Road near the corner of Birrell Street, outside the retirement village. Thanks to Waverley Council for this great location!"
439,"Kings Cross - Kings Cross Road",9,5,-33.875724,151.222684,"in a dedicated location on Kings Cross Road, on the corner of Pennys Lane outside the Diamant Hotel. Thanks to City of Sydney for this great location!"
423,"North Sydney - Doohat Avenue",9,5,-33.835798,151.205311,"in a dedicated bay on Doohat Ave on the corner of Pacific Highway. This space has been provided by North Sydney City Council for the benefit of local residents and businesses."
260,"Surry Hills - Belvoir Street near Elizabeth Street",11,5,-33.888798,151.208197,"in a dedicated bay on Belvoir St, on the corner of Elizabeth St. Thanks to City of Sydney for this great location!"
382,"Maroubra - Anzac Parade",11,5,-33.940754,151.239031,"in the council carpark on the medium strip, near Green Street. the bikes and scooters is parked at car space number 110 and is the closest spot to Green Street and opposite Pacific Square shopping centre. Thanks to Randwick City Council for this great location"
444,"Alexandria - Maddox Street",11,4,-33.905621,151.190982,"in a dedicated bay on Maddox Street on the corner of Lawrence Street. Thanks to City of Sydney for this great location!"
131,"Darlinghurst - Craigend Street",11,5,-33.87663,151.22569,"in a dedicated bicycle pod - generously provided by the City of Sydney - on Craigend street, near Oswald Lane"
412,"Erskineville - Coulson Street near Mitchell Road",11,5,-33.906271,151.187761,"on Coulson Street near the corner of Mitchell Road. Thanks to City of Sydney for this great location."
53,"Coogee North - Beach Street",13,5,-33.9173,151.2589,"in a dedicated bay on Beach Street, in between Baden Street and Arcadia Street."
122,"Glebe - Mitchell and Derwent Street",9,5,-33.88285,151.18909,"opposite 50 Derwent Street"
434,"Tamarama - Alexander Street",9,5,-33.897676,151.272257,"in a dedicated bay on Alexander Street on the corner of Fletcher Street. Thanks to Waverley Council for this great location!"
341,"Newtown - Angel Street",11,5,-33.899041,151.180863,"in a dedicated bay on Angel St on the corner of Newman St. Thanks to City of Sydney for this great location!"
65,"Stanmore - Cavendish St and Holt St",11,5,-33.8956,151.164,"on Holt street, near the corner of Cavendish.  Park as close as you can to number 14 Holt street."
33,"Neutral Bay - Yeo Street",13,6,-33.832,151.2198,"next to the Fire Station. This dedicated space has been provided by North Sydney City Council for the benefit of local residents and businesses."
192,"Camperdown - Alexandra Drive",9,4,-33.884044,151.177808,"in a dedicated bay on Alexandra Drive, in the new City Quarter development. Thanks to City of Sydney council for this great location"
103,"Kings Cross - Baroda Street",11,9,-33.8722,151.2259,"on the western side of Baroda St, adjacent to Fitzroy gardens, in a dedicated bicycle pod. Thanks to City of Sydney for this great location!"
134,"Kings Cross - Ward Avenue",11,4,-33.87515,151.22457,"on the east side of Ward Avenue, in a dedicated pod - generously provided by the City of Sydney - just south of Bayswater Road. Thanks to City of Sydney for this great location!"
308,"Newtown North - Hollis Park",9,4,-33.894999,151.186328,"is located in a dedicated bay on Wilson St next to Hollis Park close to the pedestrian crossing. Thanks to City of Sydney for this great location!"
358,"Kings cross - Brougham street",11,5,-33.869054,151.222628,"in a dedicated pod - generously provided by the City of Sydney - on Brougham street on the corner Cowper Wharf Road. Thanks to City of Sydney for this great location!"
345,"Petersham - Brighton Street",9,5,-33.892188,151.155354,"on Brighton Street in front of the Brighton Street park. PLEASE NOTE: This is a temporary location, we are waiting for a double bay to be installed in the Petersham Town Hall, these bikes and scooters will then be moved to this location."
79,"Newtown - Station Street South",15,4,-33.9006,151.1774,"On Station Street., near #90 station Street."
262,"Petersham - Suzuki Dealership",11,17,-33.889044,151.152048,"The location is 700 Parramatta Road in Petersham. "
340,"Redfern - Chalmers Street near Cleveland Street",11,5,-33.890301,151.205942,"in a dedicated bay on Chalmers Street outside number 220, close to Cleveland St . Thanks to City of Sydney for this great location."
392,"Surry Hills - Cooper Street",11,5,-33.885211,151.208321,"in a dedicated bay on Cooper Street near the corner of Elizabeth Street. Thanks to City of Sydney for this great location!"
159,"Darlington - Abercrombie Street",11,5,-33.89236,151.192064,"in a dedicated pod - generously provided byu the city of Sydney - outside 353 Abercrombie Street, near the corner of Codrington Street."
211,"Camperdown - Fowler St",9,4,-33.889813,151.177121,"on the park side of Fowler St. "
388,"Lavender Bay - Lavender Street",9,5,-33.842811,151.206201,"in a dedicated location on Lavender Street close to the intersection of Waiwera Street.  This space has been provided by North Sydney City Council for the benefit of local residents and businesses."
195,"Waterloo- Phillip Street",11,5,-33.896076,151.206411,"a dedicated bay on  Phillip St, near the corner of Elizabeth st. these bikes and scooters is located next to Redfern Park"
352,"Double Bay - William Street",9,4,-33.874834,151.242385,"in a dedicated bay on William Street on the corner of Bay Street. Thanks to Woollahra Council for this great location!"
464,"Lewisham - Hunter Street",9,4,-33.893814,151.148258,"on the corner of Hunter Street and Railway Terrace. "
409,"Zetland - Grandstand Avenue corner of Austin Grove",9,4,-33.904935,151.210284,"on the corner of Grandstand Ave and Austin Grove, next to the park."
354,"Paddington - Napier Street",13,5,-33.883079,151.21862,"in a dedicated pod, provided by City of Sydney, on Napier Street near South Dowling street one of 90 degree parking"
271,"Bondi Beach - Lamrock Avenue",9,5,-33.889816,151.268429,"in a dedicated bay on Lamrock Avenue, just east of Cox Avenue. THIS IS A NEW LOCATION!!! Thanks to Waverley Council for this great location!"
293,"Newtown - Oxford Street",11,5,-33.896742,151.175367,"in the angle parking on Oxford St, near the corner of Horbury Lane and outside the church."
449,"Newtown - Copeland Avenue",11,4,-33.896591,151.185039,"in a dedicated bay in Copeland Avenue on the corner of Burren Street. Thanks to City of Sydney for this great location!"
238,"Glebe - Catherine Street",11,5,-33.883886,151.190125,"in a dedicated bay, on Catherine St near Derwent St. Thanks to City of Sydney for this great location"
485,"Randwick - Church Street",9,5,-33.910985,151.238248,"in an unrestricted location outside 18 Church Street near the corner of Frances Street."
177,"Manly - Cohen st",11,4,-33.795346,151.275204,"near 6-8 Cohen street near the corner of Sydney Rd."
175,"Kings Cross- Victoria Street - Kings Cross Train Station",17,6,-33.874466,151.222268,"Victoria St in a dedicated bicycle pod - generously provided by the City of Sydney adjacent to the Kings Cross station entrance. Thanks to City of Sydney for this great location!"
221,"Bronte - Pacific Street",9,5,-33.905176,151.265921,"on Pacific Street, just west of Nelson Avenue. "
437,"Surry Hills - Bellevue Street",9,5,-33.883176,151.211872,"in a dedicated bay on Bellevue Street on the corner of Albion Street. Thanks to City of Sydney for this great location!"
441,"Rushcutters Bay - Clement Street",9,4,-33.875651,151.228061,"in a dedicated bay on Clement Street on the corner of Waratah Street. Thanks to City of Sydney for this great location!"
447,"Potts Point - Orwell Street",11,5,-33.872131,151.22401,"in a dedicated bay on Orwell Street on the corner of Earl Place next to the park. Thanks to City of Sydney for this great location!"
288,"Kirribilli - McDougall Street",9,4,-33.844247,151.213909,"in a dedicated bay on McDougall Street, adjacent to the park, near the corner of Hipwood street.  This space has been provided by North Sydney City Council for the benefit of local residents and businesses."
258,"Redfern - Great Buckingham Street near Cleveland Street",11,4,-33.889983,151.207055,"in a dedicated bay on Great Buckinham St, near the corner of Cleveland St."
206,"Surry Hills - Foveaux Street",11,4,-33.883849,151.209301,"in a dedicated bay on the north side of Foveaux St, just east of Mary St. This location has been generously provided by City of Sydney."
254,"Surry Hills - Taylor Square",9,4,-33.880922,151.215799,"in a dedicated bay in Taylor Square on Campbell St, between Denham St and Little Oxford St. Thanks to City of Sydney for this great location!"
189,"Crows Nest - Holtermann Street",11,7,-33.825215,151.204048,"in a dedicated bay outside 65 Holtermann St Corner Sophia Street. This dedicated space has been provided by North Sydney City Council for the benefit of local residents and businesses."
283,"Woolloomooloo - Dowling Street",9,5,-33.870187,151.221327,"in a dedicated bay on Dowling Street, near the corner of Nicholson Street. Thanks to City of Sydney for this great location!"
389,"Potts Point - St Neots Avenue",11,4,-33.867498,151.225264,"in a dedicated bay in St Neots Avenue, on the corner of Wylde Street in the 90 degree parking. Thanks to City of Sydney for this great location!"
46,"St Leonards - Corner of Atchison St and Oxley St",9,4,-33.823,151.1995,"on Atchison street, near the corner of Oxley Street."
158,"Millers Point - 38 Hickson Street, The Bond Building",11,9,-33.862421,151.202865,"in front of 38 Hickson Street (near the Bond Building), in a dedicated space generously provided by the City of Sydney"
438,"Elizabeth Bay - Billyard Avenue",11,4,-33.869283,151.226659,"in a dedicated location on Billyard Avenue near the access stairs up to Macleay Street, south of Onslow Avenue. Thanks to City of Sydney council for this great location!"
178,"Bondi South - Imperial Avenue",11,4,-33.894749,151.266101,"on Imperial Ave, south of Bondi Road."
237,"Surry Hills - Buckingham Street",9,5,-33.8863,151.207634,"Corner of Buckingham Street and Devonshire Street"
452,"Artarmon - Jersey Road",9,5,-33.810375,151.183754,"on Jersey Road next to Thomson Park, opposite number 6. This is not yet a dedicated bay, but should be within the next 2 weeks."
419,"Bondi Junction - Mill Hill Road",11,5,-33.890897,151.244348,"in a dedicated bay on the corner of Mill Hill Road and Oxford Street. Thanks to Waverley Council for this great location! "
477,"Manly - Birkley Road corner of Sydney Road",9,4,-33.795849,151.280428,"on Birkley Road on the corner of Sydney Road."
309,"Kings Cross - Roslyn Gardens corner of Waratah Street",9,5,-33.873413,151.227568,"in a dedicated bay on Roslyn Gardens, near the corner of Waratah Street. Thanks to City of Sydney for this great location!"
421,"Randwick - Dudley Street",11,4,-33.920538,151.246709,"on Dudley Street on the corner of St Pauls Street. "
35,"Balmain - College Street",9,4,-33.8556,151.1816,"next to the kids playground on College Street a short walk from Darling Street."
161,"Newtown - Georgina Street",11,5,-33.893761,151.18535,"at 19 Georgina Street corner Soudan Lane. Thanks to City of Sydney for this great location!"
456,"Surry Hills - Holt Street corner Devonshire Street",9,5,-33.886671,151.209087,"in a dedicated bay on Holt street on the corner of Devonshire Street. Thanks to City of Sydney for this great location!"
48,"Bondi - Benevolent Society Wellington Street",9,4,-33.8921,151.2644,"in the Benevolent Society car park. The Benevolent Society is situated between Ocean Street and Wellington Street. The street address is 30 Wellington Street but you have to access the car park from Ocean Street."
232,"Pyrmont - Pyrmont Street",11,4,-33.867678,151.193858,"in a dedicated bay on Pyrmont St near the corner of Jones Bay Road. these bikes and scooters is located near 39 Pyrmont St. Thanks to City of Sydney for this great location"
506,"Darlinghurst - Stanley Street",9,5,-33.876039,151.216986,"on Stanley Street near the corner of Palmer Street."
454,"Ashfield - Webbs Avenue",11,5,-33.885316,151.127224,"in Webbs Avenue on the corner of Charlotte Street."
408,"Redfern - Bourke Street near Chelsea Street",11,5,-33.892793,151.214178,"on Bourke Street opposite Chelsea Street. Thanks to City of Sydney for this great location!"
116,"Redfern - George Street",11,5,-33.892654,151.202098,"116 George St, near the corner of Redfern st. NOTE: the location of this pod has been moved to this new dedicated bay. Thanks to City of Sydney for this great location"
132,"Pyrmont - Saunders Street",9,9,-33.86954,151.19023,"in a dedicated bicycle pod - generously provided by the City of Sydney - on the south side Saunders Street, near Quarry Masters Drive, in front of 35 Saunders Street"
501,"Annandale - Catherine Street",9,5,-33.883182,151.162783,"on Catherine Street on the corner of Styles Street."
187,"Pyrmont - Miller Street",11,5,-33.870179,151.192716,"in a dedicated bay generously provided by City of Sydney on Miller St directly outside the IGA just east of Miller Lane."
98,"Stanmore - Corner of Merchant and Cambridge Street",13,6,-33.8962,151.1671,"on Merchant Street, in front of Montague Gardens (Park), opposite of 78 Cambridge."
78,"Erskineville - Harold Street",11,5,-33.901041,151.181638,"in a dedicated bay on Harold street, on the corner of Union Lane. Thanks to City of Sydney for this great location"
469,"Kirribilli - Peel Street",9,5,-33.849809,151.217298,"in a dedicated bay on Peel Street on the corner of Upper Pitt Street. This dedicated space has been provided by North Sydney City Council for the benefit of local residents and businesses."
76,"Edgecliff - Edgecliff Road",13,6,-33.880517,151.240639,"Located on Edgecliff Road, near the corner of Albert Street."
333,"Chippendale - Kensington street",9,7,-33.884345,151.201503,"in a dedicated bay on Kensington street, near the corner of Broadway. Thanks to City of Sydney for this location!"
5,"Marrickville - Enmore Park",9,4,-33.9035,151.1691,"near the corner of Enmore Road and Llewelyn St on Enmore Park, as close as possible to the corner, in Enmore."
74,"Chatswood - Railway Street",15,5,-33.7944,151.1803,"in a dedicated bicycle pod on Railway Street, opposite the Zenith Theatre. This dedicated space has been provided by Willoughby City Council for the benefit of local residents and businesses."
47,"Annandale - Corner Annandale Street & Booth Street",11,5,-33.8812,151.1693,"outside 147 Annadale street on the corner of Annadale and Booth Street (the south east corner)."
459,"Alexandria - Mitchell Road",11,4,-33.899031,151.19481,"in a dedicated bay on Mitchell Road, on the corner of Renwick Street. Thanks to City of Sydney for this great location!"
162,"Randwick - Alison and St Marks Road",15,4,-33.913467,151.246473,"on Alison Road, near the corner of St Marks Road, outside the high rise apartments."
12,"Kirribilli - Bligh Street",17,11,-33.8469,151.214,"outside the Kirribilli Neighbourhood Centre on Bligh Street, just 2 minutes from the Milsons Point Train Station and in the centre of Kirribilli. This dedicated space has been provided by North Sydney City Council for the benefit of local residents and businesses."
41,"Glebe - Woolley Street",11,5,-33.8799,151.1849,"in a dedicated bay on Woolley Street next to St James Primary School, just north of the pedestrian crossing. Thanks to City of Sydney for this great location!"
282,"Camperdown - Church street near Lucas Street",11,5,-33.889305,151.178446,"is located on Church Street near Lucas St. Thanks to City of Sydney for this great location!"
209,"McMahons Point  - King George Street",11,4,-33.844238,151.205786,"on King George St, close to number 8, next to the train line. Thanks to North Sydney Council for this great location"
391,"Surry Hills - Short Street",11,4,-33.882617,151.217108,"in a dedicated pod on Short St near Flinders St. Thanks to City of Sydney for this great location."
110,"Surry Hills - Riley and Ann Streets",9,7,-33.8827,151.2132,"near 303 Riley Street, in a dedicate bicycle pod provided by the City of Sydney"
492,"Leichhardt - Flood Street",11,5,-33.884066,151.149892,"On Flood Street near the corner of Marion Street."
204,"Surry Hills - Waterloo St",9,4,-33.884874,151.211261,"on Waterloo St, near the corner of Foveaux St. these bikes and scooters should be parked on Waterloo, between Foveuax and Cooper St. these bikes and scooters do not have a dedicated bay yet, we have applied for one and it should be installed within the month"
476,"Haymarket - Ultimo Road",9,5,-33.880165,151.204303,"in a dedicated bay on Ultimo Road on the corner of Thomas Street. Thanks to City of Sydney for this great location!"
493,"Sydney CBD - Wynard Lane Car Park",11,5,-33.865451,151.206604,"In the Secure Park on Wynyard Lane. The entrance to car park is on Carrington Street. It is situated directly on top of Wynyard station, which is directly under The Menzies Hotel. You can access our car park through the entrance on Wynyard Lane."
259,"North Sydney - Bay Road",11,8,-33.835344,151.203429,"in a dedicated bay on Bay Road near the corner of Edward Street, next to the school."
520,"Manly - Addison Road",11,5,-33.801341,151.291652,"on Addison Road near the corner of Reddall Street."
517,"Randwick - Frenchmans Road",11,4,-33.908342,151.247449,"on Frenchmans Road on the corner of Clovelly Street."
245,"Woolloomooloo - Brougham Street",9,4,-33.872511,151.221946,"in a dedicated bay on Brougham Street, opposit 86 Brougham Street between Hourigan Lane and the Hills Stair Thanks to City of Sydney for this great location!"
353,"Paddington - Duxford Street",9,5,-33.882278,151.229758,"in a dedicated bay on Duxford Street near Gurner Street"
403,"Sydney CBD - 521 Kent Street - Cinema Centre",11,5,-33.874872,151.205097,"at 521 Kent Street in the Cinema Centre Secure Park car park. Enter via Kent or Sussex Streets. the bikes and scooters is in a dedicated bay on Level 3B, next to the ramp near the Kent Street exit, behind the attendant booth."
54,"Coogee South- Kurrawa Street",9,5,-33.9232,151.2569,"located on Kurrawa Street near the corner of Carr Street."
67,"Kirribilli - Corner Kirribilli Avenue and Broughton Street",19,7,-33.8488,151.2135,"on the corner of Broughton Street and Kirribilli Avenue, on the harbour side of Kirribilli Avenue. This dedicated space has been provided by North Sydney City Council for the benefit of local residents and businesses."
77,"Newtown - Bucknell Street",9,5,-33.8949,151.1841,"on Bucknell Street, as close as possible to #51 Bucknell Street."
410,"Erskineville - Morrissey Road corner Erskineville Road",9,5,-33.899847,151.184068,"on Morrissey Road near the corner of Erskineville Road. Thanks to City of Sydney for this great location."
453,"Summer Hill - Moonbie Street",9,5,-33.891871,151.136846,"in Moonbie street near the corner of Smith Street."
278,"Potts Point - Rockwall Crescent",11,4,-33.869829,151.225272,"On Rockwall Crescent, near the corner of Macleay Street. Thanks to City of Sydney for this great location!"
468,"Artarmon - McMilan Road",9,4,-33.810219,151.186683,"in a dedicated bay on McMilan Road on the corner of Hampden Road. Thanks to Willoughby Council for this great location!"
90,"North Sydney - Edward Street",11,4,-33.8377,151.2037,"on Edward St near the intersection with Riley St (not in a dedicated bay). This space has been provided by North Sydney City Council for the benefit of local residents and businesses."
167,"Bondi North - Wairoa Avenue",11,4,-33.886511,151.279678,"on Wairoa Road, near the intersection with Hastings Parade."
226,"Bondi - Beach Road",9,5,-33.886146,151.272039,"on Beach Road,  just west of Glenayr Street."
20,"Chatswood - Thomas Street Car Park",9,4,-33.7982,151.1797,"in car park between Albert Street and Thomas Street in between the train line and Pacific Highway. these bikes and scooters is located in a dedicated pod along Thomas Street opposite from the cross street with Katherine Street. Dedicated space provided byWilloughby City Council for the benefit of local residents and businesses."
343,"Paddington - Gordon Street corner Moore Park Road",11,5,-33.889364,151.231319,"a dedicated bay on Gordon Street near the corner of Moore Park Road. Thanks to City of Sydney for this great pod."
324,"Surry Hills - Ridge Street",11,4,-33.891245,151.214823,"in a dedicated bay on Ridge Street, on the corner of Bourke Street. Thanks to City of Sydney for this great location!"
385,"Balmain - Robert Street",11,4,-33.863753,151.180647,"in the car park on the corner of Robert and Buchannon Streets, overlooking the harbour."
105,"Pyrmont - Bowman Street and Refinery Drive",15,6,-33.8675,151.1896,"on the north east corner of Refinery drive and Bowman Street, in front of The Cooperage"
24,"Marrickville - Frampton Avenue Car Park",13,4,-33.91083,151.159478,"in the council car park on Frampton avenue, close to the Marrickville shops. You will find the bikes and scooters in the (non disabled) bays closest to the street."
135,"St Marys Cathedral",11,5,-33.87143,151.21368,"St Marys Cathedral"
402,"Sydney CBD - 1 Martin Place",11,4,-33.868346,151.208365,"at No. 1 Martin Place. The  entrance and exit is at 159 Pitt Street, next to the Westin Hotel. the bikes and scooters is in a dedicated bay on Level C3. This is located in the dead end section behind the attendant desk.To enter on foot,  walk into the outdoor forecourt of the Westin Hotel. the car park lifts are to the right of the forecourt, behind a black wall. Go to level C3. When exiting the lift, walk straight ahead, to the left of the pay station."
381,"Kingsford - Harbourne Street",11,5,-33.924017,151.228627,"in the first space on Harbourne Street, near Rainbow Street. Thanks to Randwick council for this great location."
415,"Darlinghurst - Liverpool Street near Bourke Street",11,5,-33.877717,151.21763,"on Liverpool Street close to Bourke Street, going up the hill. Thanks to City of Sydney for this great location."
369,"Pyrmont - Bowman Street",9,4,-33.866911,151.191011,"in a dedicated bay on Bowman Street, near Mount Street Walk. Thanks to City of Sydney for this great location."
497,"Randwick - Howard Street",9,5,-33.92322,151.244204,"on Howard Street on the corner of Perouse Road."
252,"Camperdown - Missenden Road",11,5,-33.887101,151.179873,"in a dedicated bay on Missenden Road, on the corner of Marsden St. Thanks to City of Sydney for  this great location!"
27,"Redfern - Great Buckingham Street",9,5,-33.891151,151.20683,"in a dedicated bay generously provided by City of Sydney outside 18 Great Buckingham Street."
227,"Bondi North - Ramsgate Ave",9,5,-33.887248,151.277125,"in a dedicated bay on Ramsgate Avenue,  just east of Gould Street. Thanks to Waverley Council for this great location!"
198,"Erskineville - Macdonald Street",11,5,-33.904057,151.185782,"in a dedicated bay on Macdonald Street, near the corner of Eve Street. Thanks to City of Sydney for this great location!"
473,"Elizabeth Bay - Elizabeth Bay Road corner Ward Avenue",11,4,-33.872874,151.22655,"in a dedicated bay on Elizabeth Bay Road on the corner of Ward Avenue. Thanks to City of Sydney for this great location!"
